,city,cloudiness,country,date,humidity,latitude,max temp,wind speed,longitude
0,Salinas,1,US,1547100000,86,36.67,55.04,3.36,-121.66
1,Mataura,56,NZ,1547100548,47,-46.19,66.44,21.27,168.86
2,Voh,24,NC,1547100548,98,-20.95,77.51,22.06,164.69
3,Upernavik,64,GL,1547100548,99,72.79,-0.07,20.83,-56.15
4,Cape Town,75,ZA,1547096400,72,-33.93,64.4,5.82,18.42
5,Busselton,0,AU,1547100549,94,-33.64,69.86,20.71,115.35
6,Poronaysk,20,RU,1547100551,67,49.22,11.45,9.98,143.1
7,East London,20,ZA,1547096400,73,-33.02,73.4,18.34,27.91
9,Sao Jose da Coroa Grande,80,BR,1547100555,100,-8.9,74.5,4.38,-35.15
10,Bredasdorp,80,ZA,1547096400,68,-34.53,64.4,9.17,20.04
11,Isangel,64,VU,1547100558,100,-19.55,78.41,12.1,169.27
12,Vaini,0,IN,1547096400,29,15.34,78.8,9.17,74.49
13,Dacice,90,CZ,1547096400,92,49.08,30.2,6.93,15.44
14,Bima,68,ID,1547100561,84,-8.45,82.6,3.94,118.73
15,Hobart,0,AU,1547098200,27,-42.88,73.4,14.99,147.33
16,Ushuaia,75,AR,1547096400,65,-54.81,46.4,4.7,-68.31
17,Atuona,76,PF,1547100562,100,-9.8,81.52,18.03,-139.03
18,Sitka,8,US,1547100563,41,37.17,38.63,14.45,-99.65
20,Bereda,75,ES,1547098200,75,43.27,46.4,4.7,-7.54
21,Toshkivka,88,UA,1547100569,91,48.78,22.3,10.65,38.58
23,Abu Kamal,0,SY,1547100569,64,34.45,37.87,4.05,40.92
24,Grindavik,75,IS,1547098200,100,63.84,39.2,20.8,-22.43
25,Carnarvon,0,ZA,1547100569,58,-30.97,61.45,5.17,22.13
26,Albany,90,US,1547099820,71,42.65,32,11.41,-73.75
28,Khatanga,20,RU,1547100570,47,71.98,-29.05,5.06,102.47
29,Barrow,92,AR,1547100570,68,-38.31,59.96,5.95,-60.23
30,Chuy,92,UY,1547100571,95,-33.69,69.14,5.06,-53.46
31,Hamilton,75,CA,1547096400,67,43.26,26.6,20.8,-79.87
32,Iquique,0,CL,1547096400,73,-20.22,69.8,5.82,-70.14
33,Rikitea,24,PF,1547100575,95,-23.12,80.93,10.42,-134.97
34,Ribeira Grande,88,PT,1547100331,100,38.52,58.88,12.77,-28.7
35,Punta Arenas,90,CL,1547096400,53,-53.16,50,19.46,-70.91
36,Bethel,90,US,1547096160,77,60.79,-11.93,19.46,-161.76
37,La Orilla,0,MX,1547100577,100,18,71.35,2.37,-102.23
38,Atambua,20,ID,1547100577,89,-9.11,85.07,7.52,124.89
39,Tezu,12,IN,1547100577,59,27.93,56,1.7,96.16
40,Jamestown,32,AU,1547100578,60,-33.21,76.25,4.38,138.6
43,Ornskoldsvik,0,SE,1547099400,85,63.29,12.2,3.36,18.72
44,Hilo,90,US,1547098260,90,19.71,69.98,4.7,-155.08
45,Pevek,76,RU,1547100579,72,69.7,3.94,11.99,170.27
46,Den Helder,90,NL,1547099700,80,52.96,42.8,5.82,4.76
47,San Cristobal,75,EC,1547096400,100,-0.39,55.4,4.7,-78.55
48,Waitati,0,NZ,1547100585,76,-45.75,63.38,3.15,170.57
49,Castro,0,CL,1547096400,100,-42.48,39.2,4.7,-73.76
50,Grand Falls,90,CA,1547099640,84,47.05,26.06,16.11,-67.74
51,Pangkalanbuun,56,ID,1547100593,92,-2.68,85.43,4.05,111.62
53,Taganak,75,PH,1547096400,79,6.08,84.2,12.75,118.3
54,Shingu,75,JP,1547096400,57,33.72,48.2,6.93,135.99
55,Georgetown,0,GY,1547096400,100,6.8,71.6,4.7,-58.16
56,San Francisco Menendez,8,SV,1547100599,50,13.84,80.21,7.4,-90.02
57,Beaufort,75,MY,1547096400,55,5.36,87.8,4.7,115.76
58,Taoudenni,0,ML,1547100600,52,22.68,36.79,5.5,-3.98
59,Adrar,0,DZ,1547096400,40,27.87,37.4,5.82,-0.29
60,Qaanaaq,32,GL,1547100600,81,77.48,-13.26,8.63,-69.36
61,Killam,88,CA,1547100600,91,52.79,9.38,4.61,-111.86
62,Saskylakh,8,RU,1547100600,0,71.97,-44.98,5.95,114.09
63,Xichang,88,CN,1547100601,59,27.88,45.02,2.04,102.25
64,Hermanus,76,ZA,1547100428,90,-34.42,60.19,4.5,19.24
66,Yulara,0,AU,1547096400,7,-25.24,102.2,10.29,130.99
67,Saldanha,80,PT,1547100610,89,41.42,24.59,3.15,-6.55
68,El Castillo,68,CO,1547100610,63,3.56,73.73,3.49,-73.79
69,Hithadhoo,80,MV,1547100610,100,-0.6,80.44,10.65,73.08
70,Hobro,80,DK,1547099400,92,56.64,30.2,2.24,9.79
71,Batesville,1,US,1547099760,45,35.77,37.04,4.7,-91.64
72,Mahebourg,75,MU,1547096400,83,-20.41,80.6,12.75,57.7
73,Prattville,1,US,1547099760,53,32.46,41,6.93,-86.46
74,Gondanglegi,8,ID,1547100617,94,-7.75,82.82,2.48,112.01
75,Chicama,90,PE,1547096400,88,-7.84,75.2,5.82,-79.15
76,Hovd,75,NO,1547099400,93,63.83,39.2,5.82,10.7
77,Roebourne,8,AU,1547100618,11,-20.77,115.99,11.99,117.15
78,Wanaka,0,NZ,1547100618,30,-44.7,62.35,7.07,169.14
79,Clyde River,1,CA,1547096400,74,70.47,-27.41,8.05,-68.59
80,Bluff,48,AU,1547100618,89,-23.58,78.68,11.43,149.07
81,Corinth,32,GR,1547100621,82,37.94,48.89,8.08,22.93
82,Tiznit,8,MA,1547100624,82,29.7,46.1,1.03,-9.73
83,Cidreira,8,BR,1547100628,96,-30.17,72.56,2.93,-50.22
84,Lagoa,0,PT,1547098200,81,37.14,44.6,6.93,-8.45
85,Butaritari,76,KI,1547100630,99,3.07,85.12,14.23,172.79
86,Fort Nelson,90,CA,1547099280,76,58.81,-11.21,3.36,-122.69
87,Tessalit,0,ML,1547100630,55,20.2,38.36,2.59,1.01
88,Longyearbyen,20,NO,1547099400,79,78.22,19.4,49.44,15.63
89,Cabo San Lucas,5,MX,1547099040,77,22.89,64.4,3.94,-109.91
90,Bambous Virieux,75,MU,1547096400,83,-20.34,80.6,12.75,57.76
91,Shelburne,90,CA,1547098920,85,44.08,23,13.87,-80.2
92,Sao Filipe,8,CV,1547100634,98,14.9,72.2,14.67,-24.5
94,Ratnagiri,0,IN,1547100634,87,16.98,82.28,5.95,73.3
95,Leinfelden-Echterdingen,75,DE,1547099400,97,48.69,32,11.41,9.17
96,Ponta do Sol,8,BR,1547100635,85,-20.63,60.64,2.93,-46.0
97,Hofn,0,IS,1547100635,87,64.25,43.94,25.64,-15.21
98,Ketchikan,90,US,1547096160,92,55.34,39.02,9.64,-131.65
100,Port Alfred,44,ZA,1547100636,91,-33.59,70.76,13.44,26.89
101,Iqaluit,5,CA,1547096400,68,63.75,-20.21,19.46,-68.52
103,Ambovombe,36,MG,1547100636,99,-25.18,80.66,3.04,46.09
104,Puerto Ayora,0,EC,1547100637,100,-0.74,74.18,6.96,-90.35
105,Caravelas,92,BR,1547100638,100,-17.73,73.82,5.95,-39.27
106,Nema,88,RU,1547100641,84,57.51,12.89,9.53,50.5
107,Naze,8,NG,1547100642,93,5.43,70.76,3.49,7.07
108,Itaituba,80,BR,1547100642,97,-4.26,74,2.59,-55.99
109,Basi,0,NG,1547100642,91,7.97,64.42,2.93,3.8
110,Saint-Philippe,90,CA,1547099040,79,45.36,28.4,11.41,-73.48
111,College,90,US,1547096880,83,64.86,-9.94,4.7,-147.8
113,Catuday,0,PH,1547100646,83,16.29,84.89,6.4,119.81
115,Meadow Lake,92,CA,1547100646,83,54.13,6.5,8.08,-108.44
116,Trinidad,92,UY,1547100646,98,-33.52,66.49,7.63,-56.9
117,Uruzgan,92,AF,1547100647,100,32.93,34.09,4.16,66.63
118,Iberia,100,PE,1547100647,91,-11.41,75.62,3.49,-69.49
119,Tasiilaq,20,GL,1547099400,47,65.61,15.8,13.87,-37.64
120,Chumikan,0,RU,1547100647,58,54.72,2.14,12.44,135.31
121,Meulaboh,64,ID,1547100648,100,4.14,81.83,4.72,96.13
122,Vila Velha,75,BR,1547096400,83,-3.71,80.6,13.87,-38.6
123,Klaksvik,88,FO,1547099400,87,62.23,48.2,23.04,-6.59
124,Nikolskoye,75,RU,1547098200,92,59.7,21.2,2.24,30.79
125,Homer,90,US,1547097840,80,59.64,24.08,8.05,-151.54
126,Fort-Shevchenko,76,KZ,1547100651,100,44.51,32.65,12.1,50.26
127,Komsomolskiy,64,RU,1547100653,57,67.55,-11.91,5.95,63.78
128,Port Elizabeth,1,US,1547099760,51,39.31,35.06,18.34,-74.98
129,Tuatapere,32,NZ,1547100654,84,-46.13,59.92,22.62,167.69
130,Cao Bang,92,VN,1547100654,100,22.67,56.05,3.6,106.25
131,Airai,56,TL,1547100654,89,-8.93,76.97,1.14,125.41
132,Dikson,44,RU,1547100655,100,73.51,-14.65,9.42,80.55
133,Thompson,75,CA,1547096400,75,55.74,-20.21,2.24,-97.86
134,Souillac,20,FR,1547098200,86,45.6,33.8,9.17,-0.6
135,Sanchor,0,IN,1547100661,67,24.76,70.09,4.38,71.77
136,Baryshivka,90,UA,1547098920,92,50.36,15.8,4.47,31.33
137,San Quintin,0,PH,1547100662,52,17.54,85.57,4.05,120.52
138,Yellowknife,20,CA,1547096400,66,62.45,-29.21,8.05,-114.38
139,Mujiayingzi,0,CN,1547100664,24,42.12,37.55,3.94,118.78
140,Maceio,0,BR,1547096400,88,-9.67,73.4,2.24,-35.74
141,La Ronge,90,CA,1547096400,77,55.1,-0.41,10.29,-105.3
142,Deputatskiy,56,RU,1547100664,59,69.3,-34.54,2.71,139.9
143,Sinnamary,92,GF,1547100665,97,5.38,78.14,13.22,-52.96
145,Ostrovnoy,0,RU,1547100668,54,68.05,-11.19,9.64,39.51
147,Wakkanai,75,JP,1547097480,63,45.41,28.4,27.51,141.67
149,Victoria Point,40,AU,1547098200,54,-27.58,87.8,11.41,153.3
150,Fortuna,20,ES,1547098200,48,38.18,46.4,8.05,-1.13
152,Flagstaff,1,US,1547099700,69,35.2,46.4,8.05,-111.65
153,Cumra,40,TR,1547099400,92,37.57,10.4,2.24,32.77
155,Quatre Cocos,75,MU,1547096400,83,-20.21,80.6,12.75,57.76
156,Kiama,90,AU,1547098200,82,-34.67,68,10.29,150.86
157,Turtas,0,RU,1547100672,67,58.94,-9.12,3.04,69.13
158,Alofi,92,NU,1547100000,88,-19.06,78.8,8.05,-169.92
159,Harindanga,0,IN,1547098200,46,22.04,71.6,5.82,88.32
160,Nizwa,0,OM,1547100673,59,22.93,70.54,3.49,57.53
161,Bathurst,12,AU,1547100673,71,-33.42,75.35,2.93,149.58
162,Palmer,90,US,1547096280,86,61.6,15.98,2.71,-149.11
163,San Rafael del Sur,20,NI,1547096400,73,11.85,77,6.93,-86.44
164,Nemuro,20,JP,1547096400,54,43.32,30.2,5.82,145.57
166,Nyagan,0,RU,1547100675,34,62.14,-23.02,2.71,65.43
167,Vaitape,88,PF,1547100676,100,-16.52,81.02,14,-151.75
168,Nanortalik,92,GL,1547100411,94,60.14,31.57,28.1,-45.24
169,Codrington,75,AU,1547096400,45,-28.95,91.4,11.41,153.24
170,Kapaa,90,US,1547096160,81,22.08,73.94,5.82,-159.32
171,Kaitangata,12,NZ,1547100683,52,-46.28,66.98,21.5,169.85
172,Cartagena,0,ES,1547098200,53,37.63,46.4,8.05,-1.0
173,Batagay,56,RU,1547100685,0,67.65,-44.67,3.04,134.64
174,Henties Bay,92,NA,1547100687,100,-22.12,59.65,2.59,14.28
175,Pokrovka,0,RU,1547100688,36,43.95,30.4,9.98,131.63
176,Cockburn Town,0,TC,1547100701,100,21.46,77.06,5.39,-71.14
177,Merida,88,PH,1547100688,100,10.91,74.99,8.52,124.54
178,Fenoarivo Atsinanana,92,MG,1547100688,93,-17.38,77.24,2.59,49.41
179,Poya,48,NC,1547100689,100,-21.35,75.53,20.83,165.16
180,Filadelfia,0,PY,1547100692,51,-22.35,86.15,17.25,-60.04
181,Chapais,90,CA,1547098140,85,49.78,21.2,14.99,-74.86
182,Avarua,75,CK,1547100000,69,-21.21,78.8,11.41,-159.78
183,Omboue,68,GA,1547100693,100,-1.57,79.67,3.94,9.26
184,Sao Joao da Barra,44,BR,1547100694,98,-21.64,78.5,14.79,-41.05
185,Turiacu,76,BR,1547100694,98,-5.01,74.36,2.59,-63.0
186,Narasapur,24,IN,1547100694,99,16.45,78.05,6.51,81.67
187,Manadhoo,64,MV,1547100694,100,5.77,81.74,11.21,73.38
188,Grand Gaube,75,MU,1547096400,83,-20.01,80.6,12.75,57.66
189,Nurota,75,UZ,1547098200,52,40.56,44.6,18.34,65.69
190,Ahipara,88,NZ,1547100695,83,-35.17,71.57,4.94,173.16
191,Nyurba,48,RU,1547100695,72,63.29,-6.55,5.95,118.35
192,Cherskiy,36,RU,1547100696,55,68.75,-0.34,7.07,161.3
193,Flinders,90,AU,1547098200,82,-34.58,68,10.29,150.85
194,Dzhebariki-Khaya,0,RU,1547100696,0,62.22,-44.67,2.48,135.8
196,Ilulissat,0,GL,1547095800,54,69.22,5,9.17,-51.1
197,Huilong,92,CN,1547100697,100,28.89,33.55,3.15,110.18
198,Aklavik,75,CA,1547096400,66,68.22,-32.81,4.7,-135.01
199,Kilindoni,0,TZ,1547100699,95,-7.91,84.8,13.67,39.67
200,Axim,0,GH,1547100699,100,4.87,82.28,12.66,-2.24
201,Kahului,75,US,1547096160,90,20.89,71.96,6.93,-156.47
202,Tiksi,44,RU,1547100700,72,71.64,-36.97,4.72,128.87
203,Santa Cruz,40,US,1547100000,93,36.97,53.6,1.59,-122.03
204,Syracuse,90,US,1547099700,92,43.05,28.04,10.29,-76.15
205,Arraial do Cabo,20,BR,1547100704,92,-22.97,75.67,16.8,-42.02
206,Oytal,0,KZ,1547100705,98,42.91,31.97,4.5,73.27
207,Chabahar,44,IR,1547100705,100,25.29,72.79,3.15,60.65
208,Alugan,92,PH,1547100705,91,12.22,79.76,21.5,125.48
209,Milkovo,75,BG,1547099400,87,41.53,44.6,2.04,24.68
210,Longyan,80,CN,1547100707,85,25.1,63.34,1.92,117.03
212,Dunedin,0,NZ,1547100584,76,-45.87,63.38,3.15,170.5
213,Uddevalla,0,SE,1547099400,100,58.35,21.2,3.36,11.94
214,Sioux Lookout,5,CA,1547096400,82,50.1,-5.81,2.24,-91.92
215,New Norfolk,0,AU,1547098200,27,-42.78,73.4,14.99,147.06
216,Severo-Kurilsk,68,RU,1547100709,100,50.68,20.18,3.15,156.12
217,Civitanova Marche,40,IT,1547096400,48,43.31,44.6,21.92,13.72
218,Port Hardy,90,CA,1547096400,93,50.7,44.6,13.87,-127.42
219,Kamenka,88,RU,1547100449,88,53.19,11.63,7.07,44.05
221,Elizabeth City,1,US,1547100000,49,36.3,39.02,11.41,-76.22
222,Poum,92,MK,1547100714,86,41.28,18.47,1.7,20.71
224,Honningsvag,40,NO,1547099400,79,70.98,28.4,19.46,25.97
225,Finschhafen,88,PG,1547100714,89,-6.6,77.96,2.48,147.85
226,Ancud,0,CL,1547096400,100,-41.87,39.2,4.7,-73.83
227,Manzil Salim,40,TN,1547096400,60,35.86,41,9.17,8.48
228,Coffs Harbour,0,AU,1547098200,69,-30.3,87.8,16.11,153.13
229,Kudinovo,75,RU,1547098200,92,55.76,15.8,4.47,38.2
230,Samarai,12,PG,1547100718,100,-10.62,84.26,8.63,150.67
231,Itagiba,0,BR,1547100719,83,-29.52,73.01,5.5,-50.57
232,Pokaran,0,IN,1547100719,67,26.93,64.46,5.17,71.92
233,Arman,68,RU,1547100719,74,59.7,-3.85,2.71,150.17
234,Victoria,75,BN,1547098200,55,5.28,89.6,4.7,115.24
235,Saposoa,56,PE,1547100722,95,-6.93,70.99,2.04,-76.77
236,Livingston,1,US,1547099760,58,32.58,39.02,3.36,-88.19
237,Okhotsk,0,RU,1547100725,100,59.36,-9.66,8.08,143.24
238,Hambantota,20,LK,1547097000,70,6.12,86,14.99,81.12
240,Te Anau,48,NZ,1547100727,69,-45.41,55.42,13.67,167.72
241,Tateyama,75,JP,1547100000,48,36.66,39.2,4.7,137.31
242,Perdika,75,GR,1547099400,87,39.37,51.8,11.41,20.3
243,Gat,24,SN,1547098200,68,14.69,68,16.11,-16.54
244,Usuki,75,JP,1547100000,58,33.11,53.6,5.82,131.8
245,Faanui,92,PF,1547100728,100,-16.48,81.02,14,-151.75
246,San Patricio,48,PY,1547100729,63,-26.98,83.99,7.63,-56.83
248,Acapulco,20,MX,1547099040,88,16.86,77,5.82,-99.88
249,Alvaraes,76,BR,1547100729,98,-3.22,74.14,2.48,-64.8
250,Leningradskiy,24,RU,1547100730,92,69.38,-3.76,24.63,178.42
251,Sembakung,20,ID,1547096400,58,3.82,87.8,3.36,117.25
252,Najran,0,SA,1547096400,33,17.54,59,4.5,44.22
253,Mana,75,RS,1547100000,100,43.52,26.6,1.12,20.24
254,Lata,8,IN,1547100732,72,30.78,44.75,1.48,78.62
255,Mizoch,75,UA,1547098200,85,50.4,12.2,6.71,26.14
256,Kutum,0,SD,1547100735,54,14.2,52.22,7.96,24.66
257,Mollendo,44,PE,1547100735,88,-17.03,54.74,2.15,-72.02
258,Hasaki,75,JP,1547100000,41,35.73,41,3.36,140.83
259,Guadalupe Victoria,76,MX,1547100736,100,21.68,74.99,5.61,-105.33
260,Tuktoyaktuk,20,CA,1547096400,66,69.44,-32.81,5.82,-133.03
261,Guanica,68,PR,1547100740,100,17.97,73.15,8.63,-66.91
262,Miastko,0,PL,1547100740,92,54,26.8,9.53,16.98
263,Hit,0,IQ,1547100741,71,33.64,38.95,2.71,42.83
264,Nuuk,0,GL,1547099400,78,64.17,15.8,23.04,-51.74
265,Castrillon,75,ES,1547098200,87,43.4,44.6,5.82,-6.79
266,Otjimbingwe,0,NA,1547100741,73,-22.35,55.82,2.93,16.13
267,Antalaha,92,MG,1547100743,100,-14.9,78.32,1.36,50.28
269,Ponta Delgada,75,PT,1547098200,87,37.73,60.8,23.04,-25.67
271,Saint-Pierre,90,FR,1547098200,77,48.95,32,11.41,4.24
272,Kachug,12,RU,1547100757,76,53.96,9.7,2.59,105.89
273,Coquimbo,0,CL,1547096400,93,-29.95,59,3.36,-71.34
274,Esperance,20,TT,1547096400,88,10.24,73.4,5.82,-61.45
275,Rypefjord,75,NO,1547099400,79,70.63,28.4,17.22,23.67
276,Alihe,0,CN,1547100763,46,50.57,12.53,4.72,123.73
277,Elk Point,90,CA,1547096400,77,53.9,6.8,11.41,-110.9
278,Bathsheba,40,BB,1547096400,78,13.22,77,14.99,-59.52
279,Middelburg,80,ZA,1547100771,90,-25.77,64.87,5.17,29.46
280,Kerrville,90,US,1547099700,47,30.05,48.56,5.17,-99.14
281,Talnakh,24,RU,1547100774,47,69.49,-29.64,4.16,88.39
282,Namatanai,24,PG,1547100776,96,-3.66,85.25,11.54,152.44
283,Torbay,90,CA,1547096400,85,47.66,24.8,10.29,-52.73
285,Provideniya,75,RU,1547096400,65,64.42,3.2,17.9,-173.23
286,Dalianwan,40,CN,1547098200,64,39.03,37.4,20.13,121.69
287,Barcelos,0,PT,1547098200,70,41.53,48.2,10.29,-8.62
290,Podsineye,0,RU,1547098200,63,53.67,28.4,15.66,91.54
291,Pangnirtung,0,CA,1547100791,52,66.15,-30.99,5.5,-65.72
292,Chokurdakh,36,RU,1547100794,62,70.62,-34,2.93,147.9
293,Kibaya,40,RW,1547098200,77,-2.2,66.2,3.36,30.56
294,Huarmey,8,PE,1547100796,93,-10.07,62.48,1.03,-78.15
295,Crixas,36,BR,1547100511,66,-14.55,73.55,3.71,-49.97
296,Dingli,40,MT,1547099100,66,35.86,55.4,21.92,14.38
297,Victor Harbor,0,AU,1547098200,44,-35.55,75.2,16.11,138.62
298,Vao,80,EE,1547100797,91,59.1,23.6,5.17,26.19
299,Bandarbeyla,92,SO,1547100797,100,9.49,75.04,16.24,50.81
300,Teguise,0,ES,1547098200,82,29.06,55.4,8.05,-13.56
301,Paamiut,24,GL,1547100801,100,61.99,27.29,21.83,-49.67
302,Guerrero Negro,92,MX,1547100804,99,27.97,57.94,6.51,-114.04
304,Kavieng,64,PG,1547100807,100,-2.57,84.26,7.52,150.8
305,Coihaique,0,CL,1547096400,70,-45.58,46.4,2.24,-72.07
306,Viedma,0,AR,1547100808,66,-40.81,48.62,7.63,-62.99
307,General Cepeda,0,MX,1547100808,91,25.38,42.55,2.71,-101.48
308,Itagi,64,BR,1547100595,98,-14.16,67.61,2.93,-40.01
309,Sao Paulo do Potengi,40,BR,1547100000,94,-5.89,77,3.36,-35.76
310,Casper,1,US,1547099580,61,42.87,37.04,16.11,-106.31
311,Camopi,92,GF,1547100818,100,3.17,71.57,2.04,-52.33
312,Benguela,88,AO,1547100818,100,-12.58,75.94,1.36,13.4
313,Puerto Rico,12,PY,1547100819,88,-26.82,75.35,4.72,-55.03
314,Olga,1,US,1547099580,66,34.11,59,1.36,-118.17
315,Mount Gambier,68,AU,1547096400,37,-37.83,71.6,12.75,140.78
316,Griffith,36,AU,1547096400,45,-34.29,89.6,12.75,146.06
317,Nicoya,0,CR,1547100000,73,10.15,71.6,4.7,-85.45
318,Boa Vista,0,BR,1547100000,69,2.82,77,5.82,-60.67
319,Belmonte,0,PT,1547100821,80,40.36,27.25,5.95,-7.35
320,Lao Cai,20,VN,1547100824,90,22.48,63.2,1.48,103.95
321,Oranjestad,20,AW,1547096400,78,12.52,77,9.17,-70.03
322,Hirara,75,JP,1547100000,88,24.8,73.4,10.29,125.28
323,Vardo,75,US,1547100000,50,39.62,32,19.46,-77.74
324,Dicabisagan,100,PH,1547100835,100,17.08,76.25,8.97,122.42
325,Lavrentiya,0,RU,1547100837,91,65.58,1.82,19.48,-170.99
326,Mar del Plata,20,AR,1547100709,76,-46.43,50.29,6.51,-67.52
327,Pag,8,HR,1547100841,100,44.45,39.44,15.23,15.06
328,Changqing,90,CN,1547096400,93,31.81,35.6,4.47,117.24
329,Thinadhoo,88,MV,1547100842,100,0.53,80.3,11.54,72.93
330,Portland,90,US,1547099580,92,45.52,51.08,14.99,-122.67
331,Soyo,64,AO,1547100842,98,-6.13,74.14,4.5,12.37
332,Tomatlan,20,MX,1547100843,97,19.93,70.22,2.15,-105.25
333,Sikonge,75,TZ,1547096400,100,-5.63,66.2,4.05,32.75
334,Narsaq,88,GL,1547100844,65,60.91,13.7,1.03,-46.05
335,Mahibadhoo,80,MV,1547100846,100,3.78,82.1,14.12,72.97
336,Broome,68,GB,1547099760,100,52.47,37.4,3.36,1.45
338,Boende,92,CD,1547100847,100,-0.28,70.94,1.36,20.88
339,Bowen,40,AU,1547096400,83,-20.01,82.4,11.41,148.25
340,Margate,0,AU,1547098200,27,-43.03,73.4,14.99,147.26
341,Cayenne,90,GF,1547098200,78,4.94,78.8,5.82,-52.33
342,Beloha,32,MG,1547100852,100,-25.17,77.78,5.17,45.06
343,Jambi,80,ID,1547100852,86,-1.6,81.97,3.94,103.62
344,Lebu,20,ET,1547096400,40,8.96,53.6,3.36,38.73
347,Yaan,0,NG,1547100859,86,7.38,69.32,6.17,8.57
348,Kavaratti,0,IN,1547100859,100,10.57,82.64,5.95,72.64
349,Devonport,0,AU,1547100859,56,-41.18,66.4,8.41,146.36
350,Kamiiso,75,JP,1547100000,55,41.82,39.2,20.8,140.65
351,Flin Flon,80,CA,1547100860,79,54.77,1.6,7.52,-101.88
352,Norman Wells,5,CA,1547096400,64,65.28,-43.61,3.6,-126.83
353,Praia da Vitoria,75,PT,1547096400,100,38.73,59,15.68,-27.07
354,Tshela,64,CD,1547100860,97,-4.99,68.96,3.15,12.94
356,Padang,20,ID,1547096400,74,-0.92,86,6.93,100.36
357,Plettenberg Bay,100,ZA,1547100863,100,-34.05,66.67,11.65,23.37
358,Harper,90,US,1547099700,47,30.3,50,4.94,-99.24
361,Dickinson,1,US,1547099760,73,46.88,15.08,17.22,-102.79
362,Saint-Louis,90,CH,1547099400,97,47.59,33.8,5.82,7.56
363,Opuwo,0,NA,1547100867,44,-18.06,61.09,3.49,13.84
364,Dandong,0,CN,1547100867,38,40.12,36.83,3.49,124.37
365,Noumea,75,NC,1547100000,58,-22.28,84.2,17.22,166.46
366,Kattivakkam,40,IN,1547098200,61,13.22,82.4,5.82,80.32
367,Pasighat,0,IN,1547100870,49,28.06,62.44,2.04,95.33
369,Turukhansk,56,RU,1547100873,73,65.8,-16.9,7.63,87.96
370,Karratha,8,AU,1547100678,11,-20.74,115.99,11.99,116.85
371,Rio Grande,76,BR,1547100757,100,-32.03,72.79,3.6,-52.1
372,Muli,0,IN,1547100876,42,22.62,73.24,8.08,71.45
373,Geraldton,5,CA,1547096400,76,49.72,-7.61,8.05,-86.95
374,Bonthe,0,SL,1547100877,98,7.53,75.22,4.05,-12.5
375,Ambilobe,100,MG,1547100878,99,-13.19,75.94,4.16,49.05
376,Kogon,40,UZ,1547098200,65,39.73,44.6,6.93,64.54
377,Gorodovikovsk,24,RU,1547100878,56,46.08,6.68,2.93,41.93
378,Chara,40,GR,1547099400,100,39.42,37.4,8.05,22.43
379,Manokwari,24,ID,1547100879,100,-0.87,82.1,14.23,134.08
380,Progreso,75,UY,1547100000,77,-34.68,68,12.75,-56.22
381,Tagusao,76,PH,1547100879,72,9.19,85.3,10.54,117.81
382,Sijunjung,92,ID,1547100880,100,-0.69,73.28,2.37,100.95
383,Yagodnoye,56,RU,1547100880,59,62.52,-22.62,1.48,149.63
384,Denpasar,20,ID,1547098200,79,-8.65,86,10.29,115.22
385,Samoylovka,80,RU,1547100880,82,51.19,9.97,5.61,43.71
386,Olot,40,UZ,1547098200,65,39.42,46.4,6.93,63.81
387,Batemans Bay,92,AU,1547100881,89,-35.71,68.2,4.5,150.18
388,Mastic Beach,20,US,1547099580,48,40.77,33.98,14.99,-72.85
389,Hay River,40,CA,1547096400,74,60.82,-22.01,8.05,-115.79
391,Mitu,0,IR,1547100882,79,36.2,16.45,1.92,46.09
392,Cam Ranh,20,VN,1547098200,66,11.92,86,12.75,109.15
393,Rocha,88,UY,1547100883,97,-34.48,68.74,5.5,-54.34
394,Chalus,75,IR,1547099640,93,36.66,46.4,4.7,51.42
395,Marawi,88,PH,1547100883,45,8,85.43,4.61,124.29
396,Menongue,56,AO,1547100883,54,-14.66,66.85,6.06,17.68
397,Salisbury,20,GB,1547099760,92,51.07,30.2,6.93,-1.8
398,Pingliang,24,CN,1547100884,63,35.54,28.42,3.71,106.68
399,Murray Bridge,44,AU,1547100885,72,-35.12,72.11,5.17,139.28
400,Jalu,0,LY,1547100886,81,29.03,39.04,5.06,21.55
401,Toppenish,1,US,1547099700,100,46.38,33.8,2.59,-120.31
402,Custoias,68,PT,1547100867,85,41.11,25.09,2.37,-7.32
403,Tumarbong,0,PH,1547100888,95,10.38,81.92,17.02,119.46
404,Kamaishi,75,JP,1547100000,86,39.28,39.2,13.87,141.86
405,Otradnoye,75,RU,1547098200,92,59.77,21.2,2.24,30.8
407,Petropavlovsk-Kamchatskiy,20,RU,1547098200,61,53.05,14,4.47,158.65
408,Lima,75,PE,1547096400,88,-12.06,73.4,12.75,-77.04
409,Alice Springs,0,AU,1547098200,6,-23.7,100.4,14.99,133.88
410,Hami,64,CN,1547100896,68,42.84,21.94,2.37,93.51
411,Miyang,48,CN,1547100896,86,24.4,56.81,11.43,103.44
412,Luderitz,32,NA,1547100897,95,-26.65,57.85,5.5,15.16
413,Ngozi,56,BI,1547100897,100,-2.91,61,4.16,29.82
414,Kodiak,1,US,1547099700,41,39.95,24.8,3.04,-94.76
415,Los Llanos de Aridane,0,ES,1547098200,63,28.66,60.8,10.29,-17.92
416,Saint George,40,GR,1547099400,100,39.45,37.4,8.05,22.34
417,Lompoc,40,US,1547100000,93,34.64,53.6,3.36,-120.46
418,Vila Franca do Campo,75,PT,1547098200,87,37.72,60.8,23.04,-25.43
419,Kipushi,36,CD,1547100903,93,-11.76,68.47,7.96,27.24
420,Cabedelo,0,BR,1547100000,88,-6.97,75.2,3.36,-34.84
421,Melo,100,UY,1547100904,98,-32.37,70,10.2,-54.17
422,Tevaitoa,92,PF,1547100990,100,-16.78,80.39,9.98,-151.5
423,Hadrut,0,AZ,1547100905,60,39.52,23.92,3.94,47.03
424,Isiro,20,CD,1547100906,89,2.77,71.62,2.15,27.62
425,Malanje,92,AO,1547100906,95,-9.54,67.07,4.72,16.35
426,Pathein,12,MM,1547100667,82,16.78,82.19,5.5,94.73
428,Houma,80,CN,1547100906,66,35.63,30.26,3.38,111.36
429,Rio Gallegos,0,AR,1547100000,61,-51.62,46.4,11.41,-69.22
430,Belebey,44,RU,1547100907,69,54.12,-5.47,3.71,54.12
431,Sarangani,92,PH,1547100907,93,5.4,83.18,11.21,125.46
432,Irtyshskiy,0,RU,1547100909,57,58.33,-11.37,2.93,68.13
433,Sambava,68,MG,1547100911,100,-14.27,78.64,3.15,50.17
434,Avera,1,US,1547099700,37,33.19,44.06,8.05,-82.53
435,San Carlos,36,VE,1547100914,72,9.66,74.18,7.07,-68.59
436,Mount Pleasant,1,US,1547099760,60,33.16,41.54,4.7,-94.97
437,Afonso Bezerra,76,BR,1547100915,94,-5.5,74.05,3.94,-36.51
438,Guymon,1,US,1547099700,83,36.68,37.94,11.41,-101.48
439,Laguna,64,MX,1547100915,83,27.52,59.92,1.7,-110.01
442,Jeremoabo,64,BR,1547100916,94,-10.08,70.9,5.39,-38.34
443,Nacala,80,MZ,1547100916,86,-14.56,84.71,11.54,40.69
444,Tongren,100,CN,1547100917,100,27.72,35.57,3.71,109.18
445,Imeni Poliny Osipenko,64,RU,1547100918,73,52.42,-2.86,2.71,136.49
446,Evensk,12,RU,1547100919,99,61.92,14.42,13.11,159.24
447,Sur,0,OM,1547100888,97,22.57,74.27,4.05,59.53
448,Starokozache,90,UA,1547098200,100,46.34,37.4,11.18,29.99
449,Tautira,75,PF,1547100000,74,-17.73,78.8,4.7,-149.15
450,Chegem,75,RU,1547096400,92,43.56,28.4,3.71,43.59
451,Moose Factory,90,CA,1547096400,77,51.26,1.4,11.41,-80.61
452,Nechi,92,CO,1547100921,100,5.59,62.39,1.92,-75.16
453,Perry Hall,64,US,1547100000,51,39.4,32,14.56,-76.48
454,Urusha,0,RU,1547100921,61,54.05,0.29,2.59,122.9
455,Ciudad Guayana,36,VE,1547100922,78,8.32,76.97,6.51,-62.69
456,Shangzhi,0,CN,1547100922,42,45.21,22.79,5.39,127.96
457,Bodden Town,0,KY,1547100922,100,19.28,79.72,9.75,-81.25
458,Mitsamiouli,40,KM,1547100000,74,-11.38,86,6.93,43.28
459,Barahona,64,DO,1547100711,100,18.21,75.67,4.38,-71.1
460,Belaya Gora,64,RU,1547100923,48,68.54,-29.37,3.49,146.19
461,Shache,12,CN,1547100923,71,38.42,18.25,4.61,77.24
463,Mantenopolis,32,BR,1547100923,93,-18.86,68.06,4.5,-41.12
464,San Rafael,12,AR,1547100926,52,-34.61,56.05,11.21,-68.33
465,Biak,0,ID,1547100928,72,-0.91,87.95,2.37,122.88
466,Davila,20,PH,1547100000,66,18.47,84.2,8.05,120.58
467,Durusu,0,TR,1547100000,85,37.53,32,5.82,40.83
468,Aden,76,YE,1547100822,100,12.79,74.95,6.06,45.03
469,Ola,68,RU,1547100929,100,59.58,9.34,11.43,151.3
470,Port Blair,12,IN,1547100710,100,11.67,81.92,7.63,92.75
471,Buala,8,SB,1547100929,83,-8.15,84.71,9.98,159.59
472,Mungwi,92,ZM,1547100929,94,-10.17,67.61,4.5,31.37
473,Starokucherganovka,90,RU,1547098200,92,46.32,17.6,4.47,47.96
474,Dingle,32,PH,1547100930,72,11,81.83,18.59,122.67
475,Puerto Escondido,8,MX,1547100930,100,15.86,82.15,13.44,-97.07
476,Pisco,40,PE,1547100000,94,-13.71,69.8,11.41,-76.2
477,Khandyga,0,RU,1547100931,0,62.65,-44.67,2.48,135.58
478,Cody,1,US,1547099760,54,44.53,35.96,10.29,-109.06
479,Quartucciu,0,IT,1547099400,80,39.25,46.4,9.17,9.18
482,Mehamn,80,NO,1547099400,73,71.03,28.4,32.21,27.85
483,Seoul,40,KR,1547100000,44,37.57,39.2,6.93,126.98
484,Ilembo,8,TZ,1547100935,85,-9.25,68.29,3.15,33.38
485,Puerto Berrio,56,CO,1547100935,94,6.49,72.56,2.15,-74.4
486,Husavik,88,CA,1547100935,84,50.56,2.95,3.71,-96.99
487,Saint Anthony,1,US,1547099760,80,43.97,28.94,3.36,-111.68
489,Clarence Town,75,AU,1547098200,73,-32.59,77,19.46,151.78
490,Calama,20,CL,1547100000,81,-22.46,46.4,9.17,-68.93
491,Carutapera,92,BR,1547100936,95,-1.2,76.97,7.96,-46.02
493,Fairbanks,90,US,1547099880,78,64.84,-11.03,4.7,-147.72
494,Killybegs,92,IE,1547100937,100,54.63,46.91,4.05,-8.45
495,Igrim,0,RU,1547100938,31,63.19,-21.36,3.94,64.42
497,Sisimiut,56,GL,1547100943,100,66.94,-1.78,3.71,-53.67
498,Mayumba,56,GA,1547100945,100,-3.44,76.79,4.94,10.65
499,Mount Isa,88,AU,1547098200,13,-20.73,109.4,6.93,139.49
500,Kinwat,0,IN,1547100949,46,19.62,74.5,7.52,78.2
501,Siteki,44,SZ,1547096400,94,-26.45,71.6,3.94,31.95
502,Mweka,92,CD,1547100954,100,-4.85,68.69,2.93,21.56
504,Constitucion,0,MX,1547100957,69,23.99,42.05,4.16,-104.67
505,Tabon,20,PH,1547100000,52,14.31,87.8,16.11,121.23
506,Severodvinsk,90,RU,1547100000,92,64.56,14,2.24,39.82
507,Zhezkazgan,12,KZ,1547100000,84,47.8,-0.41,4.47,67.71
508,Taltal,12,CL,1547100960,100,-25.41,50.15,1.03,-70.49
510,Balabac,56,PH,1547100963,97,7.99,82.87,19.48,117.06
511,Obo,0,CF,1547100963,80,5.39,65.63,7.07,26.49
512,Adra,0,IN,1547098200,46,23.5,69.8,4.7,86.68
514,Mandali,0,IQ,1547100966,59,33.75,39.53,4.5,45.55
515,Bilibino,76,RU,1547100966,69,68.06,6.37,5.5,166.44
516,Amalapuram,12,IN,1547098200,69,16.58,80.6,3.36,82.0
517,Vanavara,68,RU,1547100967,85,60.35,15.86,8.19,102.28
518,Sibenik,88,HR,1547100967,97,45.81,27.25,2.48,17.18
519,Dhidhdhoo,24,MV,1547100967,100,6.88,81.56,7.63,73.1
521,Lorengau,36,PG,1547100972,92,-2.02,85.97,10.42,147.27
522,Yarmouth,0,GB,1547099400,92,50.71,30.2,4.7,-1.5
523,Charters Towers,92,AU,1547100977,97,-20.07,75.98,12.55,146.27
524,Cumberland,90,US,1547099760,60,41.97,35.96,13.87,-71.43
525,Aykhal,32,RU,1547100980,36,65.95,-25.59,2.71,111.51
526,Kaeo,92,NZ,1547100980,85,-35.1,71.84,2.71,173.78
527,Beira,75,ES,1547098200,75,43.2,46.4,4.7,-8.36
528,Normandin,88,CA,1547100981,86,48.84,23.92,8.52,-72.53
529,Lixourion,75,GR,1547099400,87,38.2,53.6,19.46,20.43
530,San Jose,24,PH,1547100723,68,15.79,80.12,8.41,120.99
531,Udachnyy,8,RU,1547100988,44,66.42,-28.92,2.48,112.4
532,Baherden,92,TM,1547100989,91,38.44,43.09,9.19,57.43
534,Rockport,1,US,1547099760,66,28.02,60.08,10.29,-97.05
535,Koster,100,ZA,1547100990,98,-25.86,63.34,9.64,26.9
536,Nabire,32,ID,1547100990,72,-3.36,81.47,2.48,135.5
537,Merrill,20,US,1547095980,82,42.03,37.94,11.41,-121.6
539,San Isidro,88,PH,1547100992,98,16.74,75.71,4.05,121.63
540,Kungurtug,0,RU,1547100994,43,50.6,7,2.59,97.53
541,Horadiz,0,AZ,1547100000,80,39.45,39.2,4.7,47.33
542,Kristiansund,75,NO,1547099400,76,63.12,48.2,36.91,7.73
543,Nantucket,75,US,1547099700,58,41.28,35.06,14.99,-70.1
544,Galle,1,US,1547099760,67,29.74,50,4.7,-97.91
545,Touros,40,BR,1547100000,94,-5.2,73.4,3.36,-35.46
546,Kununurra,12,AU,1547098200,50,-15.77,96.8,5.82,128.74
547,Mulanje,36,MW,1547101000,89,-16.03,77.47,3.6,35.5
548,Bambui,0,CM,1547101001,78,6.01,50.2,1.59,10.23
549,Newport,20,GB,1547099400,100,51.59,33.8,4.7,-3.0
550,General Pico,56,AR,1547101001,94,-35.66,59.42,3.15,-63.75
551,Bilma,0,NE,1547101002,68,18.69,38,3.15,12.92
552,Benghazi,0,LY,1547101004,99,32.12,64.69,25.64,20.07
553,Lazaro Cardenas,80,MX,1547101005,85,28.39,49.25,4.94,-105.62
554,Bosilegrad,92,RS,1547101005,95,42.5,20.54,2.04,22.47
555,Hualmay,44,PE,1547101005,94,-11.1,63.79,2.48,-77.61
556,Asyut,0,EG,1547096400,75,27.18,42.8,5.82,31.19
557,Pyinmana,20,MM,1547101009,71,19.74,79.49,3.04,96.21
558,Kriel,88,ZA,1547101010,100,-26.26,62.66,10.2,29.26
559,Makakilo City,90,US,1547099820,90,21.35,73.94,4.7,-158.09
560,Rayagada,0,IN,1547101012,33,19.17,77.15,3.6,83.42
561,Koutiala,44,ML,1547101013,50,12.39,59.02,4.05,-5.46
562,Svarstad,0,NO,1547099400,85,59.4,32,3.36,9.97
563,Amvrosiyivka,64,UA,1547101013,94,47.79,21.44,9.75,38.48
565,Mattawa,90,CA,1547098320,85,46.32,12.2,25.28,-78.7
566,Vizinga,68,RU,1547101014,89,61.08,17.12,2.93,50.08
567,Daru,0,SL,1547101014,92,7.99,65,2.71,-10.85
568,Fuerte Olimpo,0,BR,1547101018,62,-21.04,81.97,8.41,-57.87
569,Liberal,1,US,1547098500,69,37.04,37.94,16.11,-100.92
570,Orichi,80,RU,1547101023,84,58.4,14.15,10.2,49.06
571,Mayor Pablo Lagerenza,0,PY,1547101023,62,-19.93,81.83,16.46,-60.77
572,Orange,8,AU,1547101026,79,-33.28,77.6,4.38,149.1
573,Mandalgovi,0,MN,1547101028,57,45.76,12.4,7.74,106.27
575,Vestmannaeyjar,20,IS,1547101030,90,63.44,40.97,20.27,-20.27
576,Mosquera,75,CO,1547100000,81,4.71,53.6,3.36,-74.23
577,Mbandaka,76,CD,1547101031,99,0.05,73.01,2.37,18.26
578,Suclayin,100,PH,1547101033,100,15.76,78.37,20.49,121.55
579,Westport,75,IE,1547100000,100,53.8,46.4,3.36,-9.52
580,Okha,76,RU,1547101036,90,53.59,5.78,4.05,142.95
581,Berberati,0,CF,1547096400,82,4.26,66.2,4.7,15.79
582,Villa Union,64,BO,1547101036,97,-10.79,71.12,2.37,-65.46
583,Ahuimanu,90,US,1547099820,93,21.44,73.94,3.36,-157.84
584,Puerto del Rosario,0,ES,1547098200,82,28.5,55.4,8.05,-13.86
585,Orlik,44,RU,1547101037,63,52.51,10.46,2.48,99.83
586,Labuhan,48,ID,1547101037,65,-2.54,87.55,3.04,115.51
587,Egvekinot,36,RU,1547101037,58,66.32,-20.68,3.04,-179.17
588,Mansa,0,IN,1547100000,37,23.43,69.8,5.82,72.66
589,Kyren,0,RU,1547101043,48,51.68,11.27,2.37,102.13
590,Pike Creek,90,US,1547099760,78,39.73,33.98,20.8,-75.7
591,Yarada,40,IN,1547100000,54,17.65,80.6,5.82,83.27
